[
    {
        "lat": "37.632096183051864",
        "lng": "127.07627040032628",
        "id": "33",
        "title": "하이테크관",
        "warnings": [
            "1층 진입로, 2층 진입로로 전층 휠체어 접근 가능. 다만 휠체어 이용자가 층을 이동하기 위해서는 향학로 쪽으로 크게 우회하여야 함."
        ]
    },
    {
        "lat": "37.629988518428064",
        "lng": "127.07983245551497",
        "id": "62",
        "title": "테크노큐브",
        "warnings": [
            "장애인 화장실 출입문 - 버튼 제어식",
            "건물 내 편의시설 - 카페"
        ]
    },
    {
        "lat": "37.630765981405986",
        "lng": "127.07921608551507",
        "id": "52",
        "title": "제2학생회관",
        "warnings": [
            "건물 내 편의시설 - 학생식당 및 카페 (키오스크), 우체국, 농협, 서점, 편의점 "
        ]
    },
    {
        "lat": "37.6299901242901",
        "lng": "127.08091758935846",
        "id": "54",
        "title": "아름관"
    },
    {
        "lat": "37.63068162725491",
        "lng": "127.08147469922196",
        "id": "57",
        "title": "무궁관",
        "warnings": [
            "장애인 화장실은 고층동(57) 1층에 있음. 저층동(57-A)에는 장애인 화장실이 없는 것으로 보임. ",
            "207호 계단식 강의실에 경사로가 없어 휠체어 접근이 어려움",
            "건물 내 편의시설 - 카페"
        ]
    },
    {
        "lat": "37.63091552858048",
        "lng": "127.08071406137871",
        "id": "53",
        "title": "상상관",
        "warnings": [
            "건물 내 편의시설 - 1층 카페 (키오스크) "
        ]
    },
    {
        "lat": "37.63163458481701",
        "lng": "127.08141552160286",
        "id": "4",
        "title": "제2창업보육센터",
        "warnings": [
            "건물에 화장실이 없어, 화장실을 이용하려면 내부 통로로 연결된 혜성관으로 이동해야 함"
        ]
    },
    {
        "lat": "37.631918648462786",
        "lng": "127.08209109764891",
        "id": "5",
        "title": "혜성관",
        "warnings": [
            "장애인 화장실은 1층에만 있음"
        ]
    },
    {
        "lat": "37.63178606708323",
        "lng": "127.0802898361743",
        "id": "1",
        "title": "대학본부",
        "warnings": [
            "1층 여자 장애인 화장실은 청소도구로 사용이 불가능함 "
        ]
    },
    {
        "lat": "37.63219544580554",
        "lng": "127.07945169407672",
        "id": "3",
        "title": "창학관",
        "warnings": [
            "창학관 내부-중정 가는 길 네 곳이 모두 계단으로 중정의 휠체어 접근성이 떨어짐"
        ]
    },
    {
        "lat": "37.63223996059275",
        "lng": "127.07803476496593",
        "id": "2",
        "title": "다산관",
        "warnings": [
            "다산관 내부-중정 가는 길 세 곳이 모두 계단으로 중정의 휠체어 접근성이 떨어짐"
        ]
    },
    {
        "lat": "37.63137641199452",
        "lng": "127.0760053213768",
        "id": "32",
        "title": "프론티어관",
        "warnings": [
            "1층 중앙에 장애인 화장실이 있음",
            "건물 내 편의시설 - 카페"
        ]
    },
    {
        "lat": "37.630871457933715",
        "lng": "127.07594869079433",
        "id": "31",
        "title": "창업보육센터"
    },
    {
        "lat": "37.63416058945771",
        "lng": "127.07699253621719",
        "id": "37",
        "title": "학생회관",
        "warnings": [
            "장애인 화장실 출입문 - 버튼 제어식",
            "1학 정문 앞 시각장애인 점자 블록이 움푹 들어가 있어 주의 필요. ",
            "건물 내 편의시설 - 편의점, 카페, ATM, 화방, 미용실 "
        ]
    },
    {
        "lat": "37.633654731584116",
        "lng": "127.07668372865162",
        "id": "35",
        "title": "중앙도서관별관",
        "warnings": [
            "장애인 화장실은 남녀 공용으로 보임"
        ]
    },
    {
        "lat": "37.63334546217974",
        "lng": "127.07715582717266",
        "id": "36",
        "title": "수연관",
        "warnings": [
            "1층 화장실에 높은 턱이 있어 휠체어 진입 불가"
        ]
    },
    {
        "lat": "37.63527478567935",
        "lng": "127.0766547037836",
        "id": "40",
        "title": "어의관",
        "warnings": null
    },
    {
        "lat": "37.63593064417596",
        "lng": "127.07606444895346",
        "id": "42",
        "title": "KB학사",
        "warnings": [
            "1층에 장애인 화장실이 있음. ",
            "KB학사에 위치한 기숙사 행정실은 계단으로만 출입 가능함. 기숙사 행정실 앞 점자블록이 회색으로 설치되어 있음. "
        ]
    },
    {
        "lat": "37.63553801960542",
        "lng": "127.07591367164369",
        "id": "43",
        "title": "성림학사",
        "warnings": [
            "세탁실 공간이 협소함. / 쓰레기를 버리려면 건물 밖으로 나가야 함. / 어의관 방향 비상구 옆이 어의관 리모델링으로 턱이 생겨 휠체어로 진입이 어려움. ",
            "건물 내 편의시설 - 편의점, 카페 / 인쇄용 컴퓨터의 모니터와 책상이 너무 높아 휠체어 사용자의 프린터 이용이 어려움"
        ]
    },
    {
        "lat": "37.634879150079584",
        "lng": "127.0775494872162",
        "id": "38",
        "title": "국제관",
        "warnings": null
    },
    {
        "lat": "37.634537155272156",
        "lng": "127.07706407107733",
        "id": "46",
        "title": "누리학사",
        "warnings": [
            "장애인 화장실 지하 1층에 위치함. ",
            "휠체어 진입이 용이한 입구는 1층에 있음.",
            "건물 내 편의시설 - 테이크아웃 전문 카페 "
        ]
    },
    {
        "lat": "37.63335615054334",
        "lng": "127.08078251721119",
        "id": "6",
        "title": "청운관",
        "warnings": null
    },
    {
        "lat": "37.634793314257784",
        "lng": "127.07938321754003",
        "id": "8",
        "title": "창조관",
        "warnings": [
            "장애인 화장실 입구 폭이 좁아 (82cm) 휠체어 출입이 어려울 것으로 보임 "
        ]
    },
    {
        "lat": "37.63526622526377",
        "lng": "127.07930121458948",
        "id": "14",
        "title": "도예실습실",
        "warnings": [
            "(미조사)"
        ]
    },
    {
        "lat": "37.63527992581737",
        "lng": "127.07872027559276",
        "id": "39",
        "title": "다빈치관",
        "warnings": null
    },
    {
        "lat": "37.63600860950012",
        "lng": "127.07832797206332",
        "id": "45",
        "title": "수림학사",
        "warnings": [
            "휠체어 이용자는 수림학사 쪽문 쪽 리프트를 통해서만 진입할 수 있음. 밤 10시 30분 이후에는 쪽문이 잠겨 이용에 유의하여야 함. ",
            "인쇄용 컴퓨터의 모니터와 책상이 너무 높아 휠체어 사용자의 프린터 이용이 어려움"
        ]
    },
    {
        "lat": "37.63049067168678",
        "lng": "127.0784724824723",
        "id": "51",
        "title": "100주년기념관",
        "warnings": [
            "장애인 화장실 지하 1층부터 지상 3층까지 확인. 4층의 경우 행정실 안쪽에 화장실이 있는 것으로 보임"
        ]
    },
    {
        "lat": "37.6291671338017",
        "lng": "127.08140669464423",
        "id": "60",
        "title": "미래관",
        "warnings": [
            "휠체어 이용자는 테크노큐브 주차장 쪽으로 건물 출입 가능"
        ]
    },
    {
        "lat": "37.628779253376386",
        "lng": "127.0813210400905",
        "id": "59",
        "title": "학군단",
        "warnings": [
            "1층에 여성 장애인 화장실이 있으나 조사 당시 잠겨 있어 사용 불가능했음. 2층 이상은 생도만 진입하는 것이 원칙이라 하여 조사하지 않음. "
        ]
    },
    {
        "lat": "37.62932805272395",
        "lng": "127.08039998973204",
        "id": "56",
        "title": "대륙관",
        "warnings": null
    },
    {
        "lat": "37.629198448095764",
        "lng": "127.07944024963182",
        "id": "55",
        "title": "체육관",
        "warnings": [
            "강당 내 무대로 올라가는 계단에 휠체어 리프트가 설치되어 있음 "
        ]
    },
    {
        "lat": "37.63304443178735",
        "lng": "127.07678352584428",
        "id": "34",
        "title": "중앙도서관",
        "warnings": [
            "인쇄용 컴퓨터의 모니터와 책상이 너무 높아 휠체어 사용자의 프린터 이용이 어려움"
        ]
    },
    {
        "lat": "37.63626301264651",
        "lng": "127.07575087458254",
        "id": "44",
        "title": "협동문",
        "warnings": [
            "휠체어 진입 불가. 대진고등학교 방향으로 나가려면 휠체어는 수림학사 앞 경사로를 이용하여야 함"
        ]
    },
    {
        "lat": "37.62937286229019",
        "lng": "127.07906244487316",
        "id": "63",
        "title": "축구장/동아리실",
        "warnings": [
            " 1층에 장애인 화장실이 있으나 카트 등 기타 잡기와 함께 있고, 여자화장실의 경우 문이 파손되어 닫을 수 없음. ",
            "승강기가 없어 1층 동아리방과 2층 관객석 각각 따로 접근해야 함. 2학생회관 쪽에서 1층 동아리방 진입 시 보도블록 생김새가 독특해 휠체어 이용 시 덜컹거리거나 진입이 어려울 수 있음"
        ]
    }
]